[
  {
    "id": 1,
    "address": "160 Gerrard St. E.",
    "city": "Toronto",
    "lat": 43.6627503179021,
    "lng": -79.3747945086417,
    "name": "Allan Gardens",
    "img": "https://res.cloudinary.com/deu69ydvq/image/upload/v1669907203/locations/allan_gardens_ndhiya.jpg"
  },
  {
    "id": 2,
    "address": "1 Beech Ave.",
    "city": "Toronto",
    "lat": 43.670757988881,
    "lng": -79.2867976682943,
    "name": "Balmy Beach Park (Silverbirch Park)",
    "img": "https://res.cloudinary.com/deu69ydvq/image/upload/v1669907202/locations/balmy_beach_park_yeq50l.jpg"
  },
  {
    "id": 3,
    "address": "519 Church St",
    "city": "Toronto",
    "lat": 43.6667348330029,
    "lng": -79.3804427183508,
    "name": "Barbara Hall Park",
    "img": "https://res.cloudinary.com/deu69ydvq/image/upload/v1669907201/locations/barbara_hall_park_btwgjz.jpg"
  },
  {
    "id": 4,
    "address": "400 Grace St. at Harbord Street",
    "city": "Toronto",
    "lat": 43.6611240214631,
    "lng": -79.4186988177004,
    "name": "Bickford Park",
    "img": "https://res.cloudinary.com/deu69ydvq/image/upload/v1669907201/locations/bickford_park_g1djle.jpg"
  },
  {
    "id": 5,
    "address": "65 Western Battery Rd.",
    "city": "Toronto",
    "lat": 43.6401480737503,
    "lng": -79.4133538056734,
    "name": "Bill Johnston Park",
    "img": "https://res.cloudinary.com/deu69ydvq/image/upload/v1669907202/locations/bill_johnston_park_f8anrn.webp"
  },
  {
    "id": 6,
    "address": "69 Cassels Ave.",
    "city": "Toronto",
    "lat": 43.6801254304055,
    "lng": -79.3068907507404,
    "name": "Cassels Avenue Playground",
    "img": "https://res.cloudinary.com/deu69ydvq/image/upload/v1669907204/locations/cassels_avenue_playground_j16ska.jpg"
  },
  {
    "id": 7,
    "address": "1611 Bathurst St.",
    "city": "Toronto",
    "lat": 43.6904658530111,
    "lng": -79.4221594761614,
    "name": "Cedarvale Park",
    "img": "https://res.cloudinary.com/deu69ydvq/image/upload/v1669907205/locations/cedarvale_park_gtyibl.jpg"
  },
  {
    "id": 8,
    "address": "1 Cherry St.",
    "city": "Toronto",
    "lat": 43.6371449625328,
    "lng": -79.3433463416839,
    "name": "Cherry Beach",
    "img": "https://res.cloudinary.com/deu69ydvq/image/upload/v1669907203/locations/cherry_beach_rslasd.jpg"
  },
  {
    "id": 9,
    "address": "25 Clarence Sq.",
    "city": "Toronto",
    "lat": 43.6441746504932,
    "lng": -79.3938118350841,
    "name": "Clarence Square",
    "img": "https://res.cloudinary.com/deu69ydvq/image/upload/v1669907204/locations/clarence_square_ehzqp6.jpg"
  },
  {
    "id": 10,
    "address": "711 Lake Shore Blvd. W.",
    "city": "Toronto",
    "lat": 43.633818836641,
    "lng": -79.4066665461588,
    "name": "Coronation Park",
    "img": "https://res.cloudinary.com/deu69ydvq/image/upload/v1669907204/locations/coronation_park_zrc2pu.jpg"
  },
  {
    "id": 11,
    "address": "460 O’Connor Dr.",
    "city": "Toronto",
    "lat": 43.6989410169486,
    "lng": -79.3339073367444,
    "name": "Coxwell Ravine Park",
    "img": "https://res.cloudinary.com/deu69ydvq/image/upload/v1669907206/locations/coxwell_ravine_park_vpcmuh.jpg"
  },
  {
    "id": 12,
    "address": "160 South Dr.",
    "city": "Toronto",
    "lat": 43.6779318866242,
    "lng": -79.3716248962144,
    "name": "Craigleigh Gardens",
    "img": "https://res.cloudinary.com/deu69ydvq/image/upload/v1669907205/locations/craigleigh_gardens_ro3glh.jpg"
  },
  {
    "id": 13,
    "address": "131 The Esplanade",
    "city": "Toronto",
    "lat": 43.6485566005176,
    "lng": -79.3679256448347,
    "name": "David Crombie Park",
    "img": "https://res.cloudinary.com/deu69ydvq/image/upload/v1669907205/locations/david_crombie_park_szavgt.jpg"
  },
  {
    "id": 14,
    "address": "550 Bayview Ave.",
    "city": "Toronto",
    "lat": 43.6875705834818,
    "lng": -79.3637055866111,
    "name": "Don Valley Brick Works",
    "img": "https://res.cloudinary.com/deu69ydvq/image/upload/v1669907205/locations/don_valley_brick_works_mruwww.jpg"
  },
  {
    "id": 15,
    "address": "855 Gerrard St. E.",
    "city": "Toronto",
    "lat": 43.6672500307425,
    "lng": -79.3432236957201,
    "name": "Gerrard Carlaw Parkette",
    "img": "https://res.cloudinary.com/deu69ydvq/image/upload/v1669907206/locations/gerrard_carlaw_parkette_vqlpx4.jpg"
  },
  {
    "id": 16,
    "address": "26 Grange Rd. W.",
    "city": "Toronto",
    "lat": 43.6523576530653,
    "lng": -79.3924139987044,
    "name": "Grange Park",
    "img": "https://res.cloudinary.com/deu69ydvq/image/upload/v1669907206/locations/grange_park_dy3vup.jpg"
  },
  {
    "id": 17,
    "address": "150 Greenwood Ave. at Dundas Street East",
    "city": "Toronto",
    "lat": 43.6688727973276,
    "lng": -79.328463124335,
    "name": "Greenwood Park",
    "img": "https://res.cloudinary.com/deu69ydvq/image/upload/v1669907206/locations/greenwood_park_gvxoqg.jpg"
  },
  {
    "id": 18,
    "address": "23 Audley Ave.",
    "city": "Toronto",
    "lat": 43.6646375504491,
    "lng": -79.3380613872338,
    "name": "Hideaway Park",
    "img": "https://res.cloudinary.com/deu69ydvq/image/upload/v1669907206/locations/hideaway_park_smswz9.jpg"
  },
  {
    "id": 19,
    "address": "950 Davenport Rd.",
    "city": "Toronto",
    "lat": 43.6756011684545,
    "lng": -79.4250549801528,
    "name": "Hillcrest Park",
    "img": "https://res.cloudinary.com/deu69ydvq/image/upload/v1669907206/locations/hillcrest_park_dp1ijq.jpg"
  },
  {
    "id": 20,
    "address": "495 Huron St.",
    "city": "Toronto",
    "lat": 43.6693938524924,
    "lng": -79.401775529019,
    "name": "Huron Street Playground",
    "img": "https://res.cloudinary.com/deu69ydvq/image/upload/v1669907206/locations/huron_street_playground_tioyhf.jpg"
  },
  {
    "id": 21,
    "address": "2075 Queen St. E.",
    "city": "Toronto",
    "lat": 43.6682093684686,
    "lng": -79.2987395464594,
    "name": "Kew Gardens",
    "img": "https://res.cloudinary.com/deu69ydvq/image/upload/v1669907201/locations/kew_gardens_duy0re.jpg"
  },
  {
    "id": 22,
    "address": "1 East Lynn Ave.",
    "city": "Toronto",
    "lat": 43.680980971439,
    "lng": -79.3155329329237,
    "name": "Merrill Bridge Road Park",
    "img": "https://res.cloudinary.com/deu69ydvq/image/upload/v1669907201/locations/merrill_bridge_road_park_epnshs.jpg"
  },
  {
    "id": 23,
    "address": "115 Felstead Ave",
    "city": "Toronto",
    "lat": 43.6781132084194,
    "lng": -79.3255369736374,
    "name": "Monarch Park",
    "img": "https://res.cloudinary.com/deu69ydvq/image/upload/v1669907202/locations/monarch_park_xrkum4.jpg"
  },
  {
    "id": 24,
    "address": "16 Norwood Rd.",
    "city": "Toronto",
    "lat": 43.6824986962827,
    "lng": -79.3038366427828,
    "name": "Norwood Park",
    "img": "https://res.cloudinary.com/deu69ydvq/image/upload/v1669907202/locations/norwood_park_tqp7cs.jpg"
  },
  {
    "id": 25,
    "address": "30 Oakcrest Ave.",
    "city": "Toronto",
    "lat": 43.6834326877826,
    "lng": -79.3113749034602,
    "name": "Oakcrest Parkette",
    "img": "https://res.cloudinary.com/deu69ydvq/image/upload/v1669907202/locations/oakcrest_parkette_mbzunm.jpg"
  },
  {
    "id": 26,
    "address": "51 Power St.",
    "city": "Toronto",
    "lat": 43.6551078091028,
    "lng": -79.3610610802985,
    "name": "Orphan’s Green",
    "img": "https://res.cloudinary.com/deu69ydvq/image/upload/v1669907202/locations/orphans_green_upq6qf.jpg"
  },
  {
    "id": 27,
    "address": "215 Avenue Rd.",
    "city": "Toronto",
    "lat": 43.6763641890678,
    "lng": -79.3955487459469,
    "name": "Ramsden Park",
    "img": "https://res.cloudinary.com/deu69ydvq/image/upload/v1669907202/locations/ramsden_park_ghi6lh.jpg"
  },
  {
    "id": 28,
    "address": "620 Dundas St. E.",
    "city": "Toronto",
    "lat": 43.6608385436792,
    "lng": -79.3626467511964,
    "name": "Regent Park",
    "img": "https://res.cloudinary.com/deu69ydvq/image/upload/v1669907203/locations/regent_park_a3jw3w.jpg"
  },
  {
    "id": 29,
    "address": "550 Broadview Ave.",
    "city": "Toronto",
    "lat": 43.6703487583724,
    "lng": -79.3562364683908,
    "name": "Riverdale Park East",
    "img": "https://res.cloudinary.com/deu69ydvq/image/upload/v1669907203/locations/riverdale_park_east_aaqrut.webp"
  },
  {
    "id": 30,
    "address": "375 Sumach St.",
    "city": "Toronto",
    "lat": 43.6657229811468,
    "lng": -79.3590649841263,
    "name": "Riverdale Park West",
    "img": "https://res.cloudinary.com/deu69ydvq/image/upload/v1669907203/locations/riverdale_park_west_jfttbb.jpg"
  },
  {
    "id": 31,
    "address": "301 St. Clair Ave. W.",
    "city": "Toronto",
    "lat": 43.6829035488315,
    "lng": -79.408629118777,
    "name": "Sir Winston Churchill Park",
    "img": "https://res.cloudinary.com/deu69ydvq/image/upload/v1669907203/locations/sir_winston_churchhill_park_atvb7u.jpg"
  },
  {
    "id": 32,
    "address": "289 Sorauren Ave.",
    "city": "Toronto",
    "lat": 43.64860703006,
    "lng": -79.4433417614469,
    "name": "Sorauren Avenue Park",
    "img": "https://res.cloudinary.com/deu69ydvq/image/upload/v1669907203/locations/sorauren_avenue_park_i1oxz4.jpg"
  },
  {
    "id": 33,
    "address": "845 King St. W.",
    "city": "Toronto",
    "lat": 43.6419835440915,
    "lng": -79.4088730248079,
    "name": "South Stanley Park",
    "img": "https://res.cloudinary.com/deu69ydvq/image/upload/v1669907203/locations/south_stanley_park_vgwjfa.webp"
  },
  {
    "id": 34,
    "address": "888 Cosburn Ave.",
    "city": "Toronto",
    "lat": 43.6987114104903,
    "lng": -79.3138839827078,
    "name": "Stan Wadlow Park",
    "img": "https://res.cloudinary.com/deu69ydvq/image/upload/v1669907204/locations/stan_wadlow_park_jhajgf.jpg"
  },
  {
    "id": 35,
    "address": "450 Adelaide St.W.",
    "city": "Toronto",
    "lat": 43.6463356956705,
    "lng": -79.3988747013626,
    "name": "St. Andrew’s Playground",
    "img": "https://res.cloudinary.com/deu69ydvq/image/upload/v1669907204/locations/st_andrews_playground_lfpdzi.jpg"
  },
  {
    "id": 36,
    "address": "120 Broadview Ave.",
    "city": "Toronto",
    "lat": 43.6593443191534,
    "lng": -79.3504668624048,
    "name": "Thompson Street Parkette",
    "img": "https://res.cloudinary.com/deu69ydvq/image/upload/v1669907204/locations/thompson_street_parkette_h78ldx.jpg"
  },
  {
    "id": 37,
    "address": "790 Queen St. W.",
    "city": "Toronto",
    "lat": 43.6472616448829,
    "lng": -79.4137482316811,
    "name": "Trinity Bellwoods Park",
    "img": "https://res.cloudinary.com/deu69ydvq/image/upload/v1669907204/locations/trinity_bellwoods_park_iktpsi.jpg"
  },
  {
    "id": 38,
    "address": "819 Palmerston Ave.",
    "city": "Toronto",
    "lat": 43.6702934527022,
    "lng": -79.4152293958622,
    "name": "Vermont Square Park",
    "img": "https://res.cloudinary.com/deu69ydvq/image/upload/v1669907205/locations/vermont_square_park_u4hcf9.jpg"
  },
  {
    "id": 39,
    "address": "110 Wildwood Cres.",
    "city": "Toronto",
    "lat": 43.6810499763904,
    "lng": -79.3131270752428,
    "name": "Wildwood Crescent Playground",
    "img": "https://res.cloudinary.com/deu69ydvq/image/upload/v1669907205/locations/wildwood_crescent_playground_lcvknd.jpg"
  },
  {
    "id": 40,
    "address": "725 Logan Ave.",
    "city": "Toronto",
    "lat": 43.6743528902076,
    "lng": -79.3469105603509,
    "name": "Withrow Park",
    "img": "https://res.cloudinary.com/deu69ydvq/image/upload/v1669907205/locations/withrow_park_cvbzd3.jpg"
  },
  {
    "id": 41,
    "address": "76 Wychwood Ave.",
    "city": "Toronto",
    "lat": 43.6799016045893,
    "lng": -79.4231806966721,
    "name": "Wychwood Barns Park",
    "img": "https://res.cloudinary.com/deu69ydvq/image/upload/v1669907205/locations/wychwood_barns_park_qqs58o.jpg"
  },
  {
    "id": 42,
    "address": "3230 Bayview Ave.",
    "city": "Toronto",
    "lat": 43.7878596632201,
    "lng": -79.394262718414,
    "name": "Bayview Arena Park",
    "img": "https://res.cloudinary.com/deu69ydvq/image/upload/v1669907201/locations/bayview_arena_park_x1xhzj.jpg"
  },
  {
    "id": 43,
    "address": "4169 Bathurst St.",
    "city": "Toronto",
    "lat": 43.7534910928902,
    "lng": -79.4318484537583,
    "name": "Earl Bales Park",
    "img": "https://res.cloudinary.com/deu69ydvq/image/upload/v1669907206/locations/earl_bates_park_u6o4ii.jpg"
  },
  {
    "id": 44,
    "address": "4801 Dufferin St.",
    "city": "Toronto",
    "lat": 43.7795561585438,
    "lng": -79.4614440603006,
    "name": "G. Ross Lord Park",
    "img": "https://res.cloudinary.com/deu69ydvq/image/upload/v1669907206/locations/g_ross_lord_park_cuaw7s.jpg"
  },
  {
    "id": 45,
    "address": "10 Linkwood Ln.",
    "city": "Toronto",
    "lat": 43.7155301192584,
    "lng": -79.3238466526164,
    "name": "Linkwood Lane Park",
    "img": "https://res.cloudinary.com/deu69ydvq/image/upload/v1669907201/locations/linkwood_lane_park_rskr8b.jpg"
  },
  {
    "id": 46,
    "address": "426 Moore Ave.",
    "city": "Toronto",
    "lat": 43.697593976296,
    "lng": -79.3705936123651,
    "name": "Sandy Bruce Park",
    "img": "https://res.cloudinary.com/deu69ydvq/image/upload/v1669907203/locations/sandy_bruce_park_du0soq.jpg"
  },
  {
    "id": 47,
    "address": "190 Sherwood Ave.",
    "city": "Toronto",
    "lat": 43.7166210460974,
    "lng": -79.3884819030221,
    "name": "Sherwood Park",
    "img": "https://res.cloudinary.com/deu69ydvq/image/upload/v1669907203/locations/sherwood_park_epv7pu.jpg"
  },
  {
    "id": 48,
    "address": "1132 Leslie St.",
    "city": "Toronto",
    "lat": 43.7243415006364,
    "lng": -79.3578471204116,
    "name": "Sunnybrook Park",
    "img": "https://res.cloudinary.com/deu69ydvq/image/upload/v1669907204/locations/sunnybrook_park_vntsix.jpg"
  },
  {
    "id": 49,
    "address": "575 Cranbrooke Ave.",
    "city": "Toronto",
    "lat": 43.7239031023199,
    "lng": -79.4287130700156,
    "name": "Woburn Park",
    "img": "https://res.cloudinary.com/deu69ydvq/image/upload/v1669907205/locations/woburn_park_tktos3.jpg"
  },
  {
    "id": 50,
    "address": "4070 Yonge St.",
    "city": "Toronto",
    "lat": 43.7401067087907,
    "lng": -79.4048074528006,
    "name": "Yonge and York Mills",
    "img": "https://res.cloudinary.com/deu69ydvq/image/upload/v1669907205/locations/yonge_and_york_mills_m1llyd.webp"
  }
]